{
    "count": 1027,
    "results": [{
        "tripid": 21892,
        "candidate": "Donald Trump",
        "state": "FL",
        "start": "2016-03-05T00:00:00.000Z",
        "end": "2016-03-05T00:00:00.000Z",
        "total_days": 1,
        "accompanied_by": null,
        "notes": "rally",
        "stops": [{
            "id": 49922,
            "placeid": 1882,
            "city": "Orlando",
            "state": "FL",
            "lat": 28.5421175,
            "lng": -81.3790462
        }
        ]
    }, {
        "tripid": 21902,
        "candidate": "Marco Rubio",
        "state": "FL",
        "start": "2016-03-05T00:00:00.000Z",
        "end": "2016-03-05T00:00:00.000Z",
        "total_days": 1,
        "accompanied_by": "Susana Martinez",
        "notes": "Rally",
        "stops": [{
            "id": 49932,
            "placeid": 1432,
            "city": "Jacksonville",
            "state": "FL",
            "lat": 30.3321838,
            "lng": -81.655651
        }
        ]
    }, {
        "tripid": 21862,
        "candidate": "Bernie Sanders",
        "state": "IL",
        "start": "2016-03-04T00:00:00.000Z",
        "end": "2016-03-04T00:00:00.000Z",
        "total_days": 1,
        "accompanied_by": null,
        "notes": "rally",
        "stops": [{
            "id": 49872,
            "placeid": 64852,
            "city": "Edwardsville",
            "state": "IL",
            "lat": 38.8114364,
            "lng": -89.9531569
        }
        ]
    }, {
        "tripid": 21872,
        "candidate": "Donald Trump",
        "state": "LA",
        "start": "2016-03-04T00:00:00.000Z",
        "end": "2016-03-04T00:00:00.000Z",
        "total_days": 1,
        "accompanied_by": null,
        "notes": "rally",
        "stops": [{
            "id": 49882,
            "placeid": 4912,
            "city": "New Orleans",
            "state": "LA",
            "lat": 29.9499323,
            "lng": -90.0701156
        }
        ]
    }, {
        "tripid": 21882,
        "candidate": "Marco Rubio",
        "state": "KS",
        "start": "2016-03-04T00:00:00.000Z",
        "end": "2016-02-04T00:00:00.000Z",
        "total_days": 1,
        "accompanied_by": null,
        "notes": "rallies",
        "stops": [{
            "id": 49892,
            "placeid": 2772,
            "city": "Topeka",
            "state": "KS",
            "lat": 39.0490111,
            "lng": -95.6775557
        }, {
            "id": 49902,
            "placeid": 64862,
            "city": "Witchita",
            "state": "KS",
            "lat": 37.68212525,
            "lng": -97.2308103328302
        }, {
            "id": 49912,
            "placeid": 11242,
            "city": "Overland Park",
            "state": "KS",
            "lat": 38.9822282,
            "lng": -94.6707917
        }
        ]
    }, {
        "tripid": 21822,
        "candidate": "Bernie Sanders",
        "state": "KS",
        "start": "2016-03-03T00:00:00.000Z",
        "end": "2016-03-03T00:00:00.000Z",
        "total_days": 1,
        "accompanied_by": null,
        "notes": "rally",
        "stops": [{
            "id": 49812,
            "placeid": 64832,
            "city": "Lawrence",
            "state": "KS",
            "lat": 38.9719384,
            "lng": -95.2359495
        }
        ]
    }, {
        "tripid": 21832,
        "candidate": "Donald Trump",
        "state": "ME",
        "start": "2016-03-03T00:00:00.000Z",
        "end": "2016-03-03T00:00:00.000Z",
        "total_days": 1,
        "accompanied_by": null,
        "notes": "rally",
        "stops": [{
            "id": 49822,
            "placeid": 7452,
            "city": "Portland",
            "state": "ME",
            "lat": 43.6610277,
            "lng": -70.2548596
        }
        ]
    }, {
        "tripid": 21842,
        "candidate": "Bernie Sanders",
        "state": "NE",
        "start": "2016-03-03T00:00:00.000Z",
        "end": "2016-03-03T00:00:00.000Z",
        "total_days": 1,
        "accompanied_by": null,
        "notes": "rally",
        "stops": [{
            "id": 49832,
            "placeid": 5042,
            "city": "Lincoln",
            "state": "NE",
            "lat": 40.8000554,
            "lng": -96.6674005
        }
        ]
    }, {
        "tripid": 21852,
        "candidate": "Donald Trump",
        "state": "MI",
        "start": "2016-03-03T00:00:00.000Z",
        "end": "2016-03-04T00:00:00.000Z",
        "total_days": 2,
        "accompanied_by": null,
        "notes": "rally, GOP Fox News Debate",
        "stops": [{
            "id": 49842,
            "placeid": 1592,
            "city": "Detroit",
            "state": "MI",
            "lat": 42.3486635,
            "lng": -83.0567375
        }, {
            "id": 49852,
            "placeid": 64432,
            "city": "Warren",
            "state": "MI",
            "lat": 42.4775364,
            "lng": -83.0277
        }, {
            "id": 49862,
            "placeid": 64842,
            "city": "Cadillac",
            "state": "MI",
            "lat": 44.2519526,
            "lng": -85.4011618
        }
        ]
    }, {
        "tripid": 21772,
        "candidate": "Bernie Sanders",
        "state": "ME",
        "start": "2016-03-02T00:00:00.000Z",
        "end": "2016-03-02T00:00:00.000Z",
        "total_days": 1,
        "accompanied_by": null,
        "notes": "rally",
        "stops": [{
            "id": 49662,
            "placeid": 7452,
            "city": "Portland",
            "state": "ME",
            "lat": 43.6610277,
            "lng": -70.2548596
        }
        ]
    }, {
        "tripid": 21782,
        "candidate": "Donald Trump",
        "state": "MI",
        "start": "2016-03-02T00:00:00.000Z",
        "end": "2016-03-04T00:00:00.000Z",
        "total_days": 2,
        "accompanied_by": null,
        "notes": "rallies",
        "stops": [{
            "id": 49672,
            "placeid": 8972,
            "city": "Ann Arbor",
            "state": "MI",
            "lat": 42.2681569,
            "lng": -83.7312291
        }, {
            "id": 49682,
            "placeid": 64432,
            "city": "Warren",
            "state": "MI",
            "lat": 42.4775364,
            "lng": -83.0277
        }, {
            "id": 49692,
            "placeid": 7892,
            "city": "Holland",
            "state": "MI",
            "lat": 42.7876022,
            "lng": -86.1090828
        }
        ]
    }, {
        "tripid": 21792,
        "candidate": "Marco Rubio",
        "state": "MI",
        "start": "2016-03-02T00:00:00.000Z",
        "end": "2016-03-02T00:00:00.000Z",
        "total_days": 1,
        "accompanied_by": null,
        "notes": "Rally",
        "stops": [{
            "id": 49702,
            "placeid": 3822,
            "city": "Shelby Charter Township",
            "state": "MI",
            "lat": 42.6702185,
            "lng": -83.0342623825581
        }
        ]
    }, {
        "tripid": 21802,
        "candidate": "John Kasich",
        "state": "MI",
        "start": "2016-03-02T00:00:00.000Z",
        "end": "2016-03-05T00:00:00.000Z",
        "total_days": 4,
        "accompanied_by": null,
        "notes": "Town halls; rallies",
        "stops": [{
            "id": 49712,
            "placeid": 8972,
            "city": "Ann Arbor",
            "state": "MI",
            "lat": 42.2681569,
            "lng": -83.7312291
        }, {
            "id": 49722,
            "placeid": 64442,
            "city": "Grand Blanc",
            "state": "MI",
            "lat": 42.9275277,
            "lng": -83.6299517
        }, {
            "id": 49732,
            "placeid": 64432,
            "city": "Warren",
            "state": "MI",
            "lat": 42.4775364,
            "lng": -83.0277
        }, {
            "id": 49742,
            "placeid": 1592,
            "city": "Detroit",
            "state": "MI",
            "lat": 42.3486635,
            "lng": -83.0567375
        }, {
            "id": 49752,
            "placeid": 7892,
            "city": "Holland",
            "state": "MI",
            "lat": 42.7876022,
            "lng": -86.1090828
        }, {
            "id": 49762,
            "placeid": 64462,
            "city": "Marquette",
            "state": "MI",
            "lat": 46.5434914,
            "lng": -87.3964329
        }, {
            "id": 49772,
            "placeid": 64822,
            "city": "Traverse City",
            "state": "MI",
            "lat": 44.7606441,
            "lng": -85.61653
        }, {
            "id": 49782,
            "placeid": 8832,
            "city": "Birch Run",
            "state": "MI",
            "lat": 43.2508585,
            "lng": -83.7941309
        }
        ]
    }, {
        "tripid": 21812,
        "candidate": "Bernie Sanders",
        "state": "MI",
        "start": "2016-03-02T00:00:00.000Z",
        "end": "2016-03-02T00:00:00.000Z",
        "total_days": 1,
        "accompanied_by": null,
        "notes": "rally",
        "stops": [{
            "id": 49792,
            "placeid": 64472,
            "city": "East Lansing",
            "state": "MI",
            "lat": 42.7355416,
            "lng": -84.4852468
        }, {
            "id": 49802,
            "placeid": 5372,
            "city": "Lansing",
            "state": "MI",
            "lat": 42.7337712,
            "lng": -84.5553805
        }
        ]
    }, {
        "tripid": 21762,
        "candidate": "Hillary Clinton",
        "state": "FL",
        "start": "2016-03-01T00:00:00.000Z",
        "end": "2016-03-01T00:00:00.000Z",
        "total_days": 1,
        "accompanied_by": null,
        "notes": "Rally",
        "stops": [{
            "id": 49652,
            "placeid": 5622,
            "city": "Miami",
            "state": "FL",
            "lat": 25.7742658,
            "lng": -80.1936589
        }
        ]
    }, {
        "tripid": 21702,
        "candidate": "Donald Trump",
        "state": "KY",
        "start": "2016-03-01T00:00:00.000Z",
        "end": "2016-03-01T00:00:00.000Z",
        "total_days": 1,
        "accompanied_by": null,
        "notes": "Rally",
        "stops": [{
            "id": 49592,
            "placeid": 6762,
            "city": "Louisville",
            "state": "KY",
            "lat": 38.2542376,
            "lng": -85.759407
        }
        ]
    }, {
        "tripid": 21712,
        "candidate": "Donald Trump",
        "state": "OH",
        "start": "2016-03-01T00:00:00.000Z",
        "end": "2016-03-01T00:00:00.000Z",
        "total_days": 1,
        "accompanied_by": null,
        "notes": "Rally",
        "stops": [{
            "id": 49602,
            "placeid": 512,
            "city": "Columbus",
            "state": "OH",
            "lat": 39.9622601,
            "lng": -83.0007065
        }
        ]
    }, {
        "tripid": 21722,
        "candidate": "Ted Crruz",
        "state": "TX",
        "start": "2016-03-01T00:00:00.000Z",
        "end": "2016-03-01T00:00:00.000Z",
        "total_days": 1,
        "accompanied_by": null,
        "notes": "Watch Party",
        "stops": [{
            "id": 49612,
            "placeid": 63372,
            "city": "Stafford",
            "state": "TX",
            "lat": 29.6160671,
            "lng": -95.557722
        }
        ]
    }, {
        "tripid": 21732,
        "candidate": "Bernie Sanders",
        "state": "VT",
        "start": "2016-03-01T00:00:00.000Z",
        "end": "2016-03-01T00:00:00.000Z",
        "total_days": 1,
        "accompanied_by": null,
        "notes": "rally",
        "stops": [{
            "id": 49622,
            "placeid": 63382,
            "city": "Essex Junction",
            "state": "VT",
            "lat": 44.4906054,
            "lng": -73.1109604
        }
        ]
    }, {
        "tripid": 21742,
        "candidate": "Marco Rubio",
        "state": "FL",
        "start": "2016-03-01T00:00:00.000Z",
        "end": "2016-03-01T00:00:00.000Z",
        "total_days": 1,
        "accompanied_by": null,
        "notes": "Kick-off rally",
        "stops": [{
            "id": 49632,
            "placeid": 5622,
            "city": "Miami",
            "state": "FL",
            "lat": 25.7742658,
            "lng": -80.1936589
        }
        ]
    }, {
        "tripid": 21752,
        "candidate": "Marco Rubio",
        "state": "MN",
        "start": "2016-03-01T00:00:00.000Z",
        "end": "2016-03-01T00:00:00.000Z",
        "total_days": 1,
        "accompanied_by": null,
        "notes": "Rally",
        "stops": [{
            "id": 49642,
            "placeid": 63392,
            "city": "Andover",
            "state": "MN",
            "lat": 45.2332985,
            "lng": -93.2913404
        }
        ]
    }, {
        "tripid": 21572,
        "candidate": "Ben Carson",
        "state": "KY",
        "start": "2016-02-29T00:00:00.000Z",
        "end": "2016-02-29T00:00:00.000Z",
        "total_days": 1,
        "accompanied_by": null,
        "notes": "Town hall",
        "stops": [{
            "id": 49432,
            "placeid": 63302,
            "city": "Lexington",
            "state": "KY",
            "lat": 38.0464066,
            "lng": -84.4970392
        }
        ]
    }, {
        "tripid": 21582,
        "candidate": "Ben Carson",
        "state": "VA",
        "start": "2016-02-29T00:00:00.000Z",
        "end": "2016-02-29T00:00:00.000Z",
        "total_days": 1,
        "accompanied_by": null,
        "notes": "Regent University Presidential Candidate Forum",
        "stops": [{
            "id": 49442,
            "placeid": 62212,
            "city": "Virgina Beach",
            "state": "VA",
            "lat": 30.8232252,
            "lng": 29.1672411207875
        }
        ]
    }, {
        "tripid": 21592,
        "candidate": "Ben Carson",
        "state": "AL",
        "start": "2016-02-29T00:00:00.000Z",
        "end": "2016-02-29T00:00:00.000Z",
        "total_days": 1,
        "accompanied_by": null,
        "notes": "Rally",
        "stops": [{
            "id": 49452,
            "placeid": 1472,
            "city": "Montgomery",
            "state": "AL",
            "lat": 32.3441365,
            "lng": -86.2731608620072
        }
        ]
    }, {
        "tripid": 21612,
        "candidate": "Donald Trump",
        "state": "GA",
        "start": "2016-02-29T00:00:00.000Z",
        "end": "2016-02-29T00:00:00.000Z",
        "total_days": 1,
        "accompanied_by": null,
        "notes": "Rally",
        "stops": [{
            "id": 49472,
            "placeid": 63322,
            "city": "Valdosta",
            "state": "GA",
            "lat": 30.8327022,
            "lng": -83.278485
        }
        ]
    }, {
        "tripid": 21622,
        "candidate": "Hillary Clinton",
        "state": "MA",
        "start": "2016-02-29T00:00:00.000Z",
        "end": "2016-02-29T00:00:00.000Z",
        "total_days": 1,
        "accompanied_by": null,
        "notes": "GOTV events",
        "stops": [{
            "id": 49482,
            "placeid": 10702,
            "city": "Springfield",
            "state": "MA",
            "lat": 42.11241225,
            "lng": -72.5467136595821
        }, {
            "id": 49492,
            "placeid": 282,
            "city": "Boston",
            "state": "MA",
            "lat": 42.3604823,
            "lng": -71.0595678
        }
        ]
    }, {
        "tripid": 21632,
        "candidate": "Hillary Clinton",
        "state": "VA",
        "start": "2016-02-29T00:00:00.000Z",
        "end": "2016-02-29T00:00:00.000Z",
        "total_days": 1,
        "accompanied_by": null,
        "notes": "GOTV events",
        "stops": [{
            "id": 49502,
            "placeid": 7182,
            "city": "Fairfax",
            "state": "VA",
            "lat": 38.8462236,
            "lng": -77.3063733
        }, {
            "id": 49512,
            "placeid": 9652,
            "city": "Norfolk",
            "state": "VA",
            "lat": 36.9306505,
            "lng": -76.2573110672108
        }
        ]
    }, {
        "tripid": 21642,
        "candidate": "Marco Rubio",
        "state": "TN",
        "start": "2016-02-29T00:00:00.000Z",
        "end": "2016-02-29T00:00:00.000Z",
        "total_days": 1,
        "accompanied_by": "Bill Haslam",
        "notes": "Rally",
        "stops": [{
            "id": 49522,
            "placeid": 63332,
            "city": "Alcoa",
            "state": "TN",
            "lat": 35.7895271,
            "lng": -83.9737934
        }
        ]
    }, {
        "tripid": 21652,
        "candidate": "Marco Rubio",
        "state": "GA",
        "start": "2016-02-29T00:00:00.000Z",
        "end": "2016-02-29T00:00:00.000Z",
        "total_days": 1,
        "accompanied_by": null,
        "notes": "Rally",
        "stops": [{
            "id": 49532,
            "placeid": 3162,
            "city": "Atlanta",
            "state": "GA",
            "lat": 33.7490987,
            "lng": -84.3901849
        }
        ]
    }, {
        "tripid": 21662,
        "candidate": "Marco Rubio",
        "state": "AR",
        "start": "2016-02-29T00:00:00.000Z",
        "end": "2016-02-29T00:00:00.000Z",
        "total_days": 1,
        "accompanied_by": "Thomas Hutchinson",
        "notes": "Rally",
        "stops": [{
            "id": 49542,
            "placeid": 63342,
            "city": "Conway",
            "state": "AR",
            "lat": 35.0886963,
            "lng": -92.442101
        }
        ]
    }, {
        "tripid": 21672,
        "candidate": "Marco Rubio",
        "state": "OK",
        "start": "2016-02-29T00:00:00.000Z",
        "end": "2016-02-29T00:00:00.000Z",
        "total_days": 1,
        "accompanied_by": null,
        "notes": "Rallies",
        "stops": [{
            "id": 49552,
            "placeid": 4282,
            "city": "Oklahoma City",
            "state": "OK",
            "lat": 35.4729886,
            "lng": -97.5170536
        }, {
            "id": 49562,
            "placeid": 63352,
            "city": "Jenks",
            "state": "OK",
            "lat": 36.0228734,
            "lng": -95.9683277
        }
        ]
    }, {
        "tripid": 21682,
        "candidate": "Bernie Sanders",
        "state": "MA",
        "start": "2016-02-29T00:00:00.000Z",
        "end": "2016-02-29T00:00:00.000Z",
        "total_days": 1,
        "accompanied_by": null,
        "notes": "rally",
        "stops": [{
            "id": 49572,
            "placeid": 63362,
            "city": "Milton",
            "state": "MA",
            "lat": 42.2495435,
            "lng": -71.0661611
        }
        ]
    }, {
        "tripid": 21692,
        "candidate": "Bernie Sanders",
        "state": "MN",
        "start": "2016-02-29T00:00:00.000Z",
        "end": "2016-02-29T00:00:00.000Z",
        "total_days": 1,
        "accompanied_by": null,
        "notes": "rally",
        "stops": [{
            "id": 49582,
            "placeid": 6232,
            "city": "Minneapolis",
            "state": "MN",
            "lat": 44.9772995,
            "lng": -93.2654692
        }
        ]
    }, {
        "tripid": 21482,
        "candidate": "John Kasich",
        "state": "VT",
        "start": "2016-02-29T00:00:00.000Z",
        "end": "2016-02-29T00:00:00.000Z",
        "total_days": 1,
        "accompanied_by": null,
        "notes": "Town hall",
        "stops": [{
            "id": 49332,
            "placeid": 63242,
            "city": "Castleton",
            "state": "VT",
            "lat": 43.6106224,
            "lng": -73.1798319
        }
        ]
    }, {
        "tripid": 21492,
        "candidate": "John Kasich",
        "state": "MA",
        "start": "2016-02-29T00:00:00.000Z",
        "end": "2016-02-29T00:00:00.000Z",
        "total_days": 1,
        "accompanied_by": null,
        "notes": "Town hall",
        "stops": [{
            "id": 49342,
            "placeid": 63252,
            "city": "Plymouth",
            "state": "MA",
            "lat": 41.9584367,
            "lng": -70.6672576
        }
        ]
    }, {
        "tripid": 21512,
        "candidate": "Ben Carson",
        "state": "GA",
        "start": "2016-02-28T00:00:00.000Z",
        "end": "2016-02-28T00:00:00.000Z",
        "total_days": 1,
        "accompanied_by": null,
        "notes": "sermon",
        "stops": [{
            "id": 49362,
            "placeid": 7642,
            "city": "Milner",
            "state": "GA",
            "lat": 33.1167891,
            "lng": -84.1965855
        }
        ]
    }, {
        "tripid": 21522,
        "candidate": "Hillary Clinton",
        "state": "AR",
        "start": "2016-02-28T00:00:00.000Z",
        "end": "2016-02-28T00:00:00.000Z",
        "total_days": 1,
        "accompanied_by": null,
        "notes": "grassroots event",
        "stops": [{
            "id": 49372,
            "placeid": 63262,
            "city": "Pine Bluff",
            "state": "AR",
            "lat": 34.2284312,
            "lng": -92.0031954
        }
        ]
    }, {
        "tripid": 21532,
        "candidate": "Hillary Clinton",
        "state": "TN",
        "start": "2016-02-28T00:00:00.000Z",
        "end": "2016-02-28T00:00:00.000Z",
        "total_days": 1,
        "accompanied_by": null,
        "notes": null,
        "stops": [{
            "id": 49382,
            "placeid": 2212,
            "city": "Nashville",
            "state": "TN",
            "lat": 36.1622257,
            "lng": -86.7743419
        }
        ]
    }, {
        "tripid": 21542,
        "candidate": "Marco Rubio",
        "state": "VA",
        "start": "2016-02-28T00:00:00.000Z",
        "end": "2016-02-28T00:00:00.000Z",
        "total_days": 1,
        "accompanied_by": null,
        "notes": "rallies",
        "stops": [{
            "id": 49392,
            "placeid": 63282,
            "city": "Midlothian",
            "state": "VA",
            "lat": 37.5062673,
            "lng": -77.6492679
        }, {
            "id": 49402,
            "placeid": 62212,
            "city": "Virgina Beach",
            "state": "VA",
            "lat": 30.8232252,
            "lng": 29.1672411207875
        }, {
            "id": 50242,
            "placeid": 65882,
            "city": "Purcelville",
            "state": "VA",
            "lat": 0,
            "lng": 0
        }
        ]
    }, {
        "tripid": 21552,
        "candidate": "Bernie Sanders",
        "state": "OK",
        "start": "2016-02-28T00:00:00.000Z",
        "end": "2016-02-28T00:00:00.000Z",
        "total_days": 1,
        "accompanied_by": null,
        "notes": "rally",
        "stops": [{
            "id": 49412,
            "placeid": 4282,
            "city": "Oklahoma City",
            "state": "OK",
            "lat": 35.4729886,
            "lng": -97.5170536
        }
        ]
    }, {
        "tripid": 21562,
        "candidate": "Bernie Sanders",
        "state": "CO",
        "start": "2016-02-28T00:00:00.000Z",
        "end": "2016-02-28T00:00:00.000Z",
        "total_days": 1,
        "accompanied_by": null,
        "notes": "rally",
        "stops": [{
            "id": 49422,
            "placeid": 63292,
            "city": "Fort Collins",
            "state": "CO",
            "lat": 40.5508527,
            "lng": -105.0668084
        }
        ]
    }, {
        "tripid": 21472,
        "candidate": "Donald Trump",
        "state": "AL",
        "start": "2016-02-28T00:00:00.000Z",
        "end": "2016-02-28T00:00:00.000Z",
        "total_days": 1,
        "accompanied_by": null,
        "notes": "Rally",
        "stops": [{
            "id": 49322,
            "placeid": 1502,
            "city": "Huntsville",
            "state": "AL",
            "lat": 34.677972,
            "lng": -86.4554615634615
        }
        ]
    }, {
        "tripid": 21502,
        "candidate": "Ben Carson",
        "state": "TN",
        "start": "2016-02-28T00:00:00.000Z",
        "end": "2016-02-28T00:00:00.000Z",
        "total_days": 1,
        "accompanied_by": null,
        "notes": "tour of veterans service center",
        "stops": [{
            "id": 49352,
            "placeid": 3602,
            "city": "Memphis",
            "state": "TN",
            "lat": 35.1490215,
            "lng": -90.0516285
        }
        ]
    }, {
        "tripid": 21372,
        "candidate": "Donald Trump",
        "state": "AR",
        "start": "2016-02-27T00:00:00.000Z",
        "end": "2016-02-27T00:00:00.000Z",
        "total_days": 1,
        "accompanied_by": null,
        "notes": "Rally",
        "stops": [{
            "id": 49182,
            "placeid": 62572,
            "city": "Bentonville",
            "state": "AR",
            "lat": 36.3728538,
            "lng": -94.2088171
        }
        ]
    }, {
        "tripid": 21382,
        "candidate": "Hillary Clinton",
        "state": "AL",
        "start": "2016-02-27T00:00:00.000Z",
        "end": "2016-02-27T00:00:00.000Z",
        "total_days": 1,
        "accompanied_by": null,
        "notes": "get out the vote event",
        "stops": [{
            "id": 49192,
            "placeid": 62582,
            "city": "Fairfield",
            "state": "AL",
            "lat": 33.4859402,
            "lng": -86.9119365
        }
        ]
    }, {
        "tripid": 21392,
        "candidate": "John Kasich",
        "state": "TN",
        "start": "2016-02-27T00:00:00.000Z",
        "end": "2016-02-27T00:00:00.000Z",
        "total_days": 1,
        "accompanied_by": null,
        "notes": "Town hall; Lincoln Day Dinner",
        "stops": [{
            "id": 49202,
            "placeid": 2212,
            "city": "Nashville",
            "state": "TN",
            "lat": 36.1622257,
            "lng": -86.7743419
        }, {
            "id": 49212,
            "placeid": 1212,
            "city": "Knoxville",
            "state": "TN",
            "lat": 35.9603948,
            "lng": -83.9210261
        }
        ]
    }, {
        "tripid": 21402,
        "candidate": "Marco Rubio",
        "state": "AL",
        "start": "2016-02-27T00:00:00.000Z",
        "end": "2016-02-27T00:00:00.000Z",
        "total_days": 1,
        "accompanied_by": null,
        "notes": "Yellowhammer Presidential Forum",
        "stops": [{
            "id": 49222,
            "placeid": 1502,
            "city": "Huntsville",
            "state": "AL",
            "lat": 34.677972,
            "lng": -86.4554615634615
        }, {
            "id": 49232,
            "placeid": 542,
            "city": "Birmingham",
            "state": "AL",
            "lat": 33.5206824,
            "lng": -86.8024326
        }
        ]
    }, {
        "tripid": 21412,
        "candidate": "Marco Rubio",
        "state": "GA",
        "start": "2016-02-27T00:00:00.000Z",
        "end": "2016-02-27T00:00:00.000Z",
        "total_days": 1,
        "accompanied_by": null,
        "notes": null,
        "stops": [{
            "id": 49242,
            "placeid": 3162,
            "city": "Atlanta",
            "state": "GA",
            "lat": 33.7490987,
            "lng": -84.3901849
        }
        ]
    }, {
        "tripid": 21422,
        "candidate": "Marco Rubio",
        "state": "AR",
        "start": "2016-02-27T00:00:00.000Z",
        "end": "2016-02-27T00:00:00.000Z",
        "total_days": 1,
        "accompanied_by": null,
        "notes": null,
        "stops": [{
            "id": 49252,
            "placeid": 62572,
            "city": "Bentonville",
            "state": "AR",
            "lat": 36.3728538,
            "lng": -94.2088171
        }
        ]
    }, {
        "tripid": 21432,
        "candidate": "Donald Trump",
        "state": "AR",
        "start": "2016-02-27T00:00:00.000Z",
        "end": "2016-02-27T00:00:00.000Z",
        "total_days": 1,
        "accompanied_by": null,
        "notes": "rally",
        "stops": [{
            "id": 49262,
            "placeid": 62572,
            "city": "Bentonville",
            "state": "AR",
            "lat": 36.3728538,
            "lng": -94.2088171
        }
        ]
    }, {
        "tripid": 21442,
        "candidate": "Donald Trump",
        "state": "TN",
        "start": "2016-02-27T00:00:00.000Z",
        "end": "2016-02-27T00:00:00.000Z",
        "total_days": 1,
        "accompanied_by": null,
        "notes": "Rally",
        "stops": [{
            "id": 49272,
            "placeid": 62612,
            "city": "Millington",
            "state": "TN",
            "lat": 35.3414745,
            "lng": -89.8973083
        }
        ]
    }, {
        "tripid": 21452,
        "candidate": "Bernie Sanders",
        "state": "TX",
        "start": "2016-02-27T00:00:00.000Z",
        "end": "2016-02-27T00:00:00.000Z",
        "total_days": 1,
        "accompanied_by": null,
        "notes": "rally",
        "stops": [{
            "id": 49282,
            "placeid": 882,
            "city": "Austin",
            "state": "TX",
            "lat": 30.2711286,
            "lng": -97.7436995
        }, {
            "id": 49292,
            "placeid": 242,
            "city": "Dallas",
            "state": "TX",
            "lat": 32.7761963,
            "lng": -96.7968994
        }
        ]
    }, {
        "tripid": 21462,
        "candidate": "Ben Carson",
        "state": "TX",
        "start": "2016-02-27T00:00:00.000Z",
        "end": "2016-02-27T00:00:00.000Z",
        "total_days": 1,
        "accompanied_by": null,
        "notes": "town hall",
        "stops": [{
            "id": 49302,
            "placeid": 4422,
            "city": "Irving",
            "state": "TX",
            "lat": 32.8629195,
            "lng": -96.9791701654883
        }, {
            "id": 49312,
            "placeid": 1362,
            "city": "Houston",
            "state": "TX",
            "lat": 29.951919,
            "lng": -95.5409143301668
        }
        ]
    }, {
        "tripid": 21302,
        "candidate": "Hillary Clinton",
        "state": "GA",
        "start": "2016-02-26T00:00:00.000Z",
        "end": "2016-02-26T00:00:00.000Z",
        "total_days": 1,
        "accompanied_by": null,
        "notes": "Rally",
        "stops": [{
            "id": 49082,
            "placeid": 3162,
            "city": "Atlanta",
            "state": "GA",
            "lat": 33.7490987,
            "lng": -84.3901849
        }
        ]
    }, {
        "tripid": 21312,
        "candidate": "Bernie Sanders",
        "state": "MN",
        "start": "2016-02-26T00:00:00.000Z",
        "end": "2016-02-26T00:00:00.000Z",
        "total_days": 1,
        "accompanied_by": null,
        "notes": "rally",
        "stops": [{
            "id": 49092,
            "placeid": 62222,
            "city": "Hibbing",
            "state": "MN",
            "lat": 47.4271546,
            "lng": -92.9376886
        }
        ]
    }, {
        "tripid": 21322,
        "candidate": "John Kasich",
        "state": "TN",
        "start": "2016-02-26T00:00:00.000Z",
        "end": "2016-02-27T00:00:00.000Z",
        "total_days": 2,
        "accompanied_by": null,
        "notes": "town halls, GOP dinner",
        "stops": [{
            "id": 49102,
            "placeid": 3602,
            "city": "Memphis",
            "state": "TN",
            "lat": 35.1490215,
            "lng": -90.0516285
        }, {
            "id": 49112,
            "placeid": 2212,
            "city": "Nashville",
            "state": "TN",
            "lat": 36.1622257,
            "lng": -86.7743419
        }, {
            "id": 49122,
            "placeid": 1212,
            "city": "Knoxville",
            "state": "TN",
            "lat": 35.9603948,
            "lng": -83.9210261
        }
        ]
    }, {
        "tripid": 21332,
        "candidate": "Bernie Sanders",
        "state": "SC",
        "start": "2016-02-26T00:00:00.000Z",
        "end": "2016-02-26T00:00:00.000Z",
        "total_days": 1,
        "accompanied_by": null,
        "notes": "rally, HCBU tour, concert",
        "stops": [{
            "id": 49132,
            "placeid": 62232,
            "city": "Orangeberg",
            "state": "SC",
            "lat": 33.4918203,
            "lng": -80.8556475
        }, {
            "id": 49142,
            "placeid": 352,
            "city": "Columbia",
            "state": "SC",
            "lat": 34.0007493,
            "lng": -81.0343313
        }
        ]
    }, {
        "tripid": 21342,
        "candidate": "Donald Trump",
        "state": "OK",
        "start": "2016-02-26T00:00:00.000Z",
        "end": "2016-02-26T00:00:00.000Z",
        "total_days": 1,
        "accompanied_by": null,
        "notes": "Rally",
        "stops": [{
            "id": 49152,
            "placeid": 4282,
            "city": "Oklahoma City",
            "state": "OK",
            "lat": 35.4729886,
            "lng": -97.5170536
        }
        ]
    }, {
        "tripid": 21352,
        "candidate": "Marco Rubio",
        "state": "OK",
        "start": "2016-02-26T00:00:00.000Z",
        "end": "2016-02-26T00:00:00.000Z",
        "total_days": 1,
        "accompanied_by": null,
        "notes": "rally",
        "stops": [{
            "id": 49162,
            "placeid": 4282,
            "city": "Oklahoma City",
            "state": "OK",
            "lat": 35.4729886,
            "lng": -97.5170536
        }
        ]
    }, {
        "tripid": 21362,
        "candidate": "Marco Rubio",
        "state": "TX",
        "start": "2016-02-26T00:00:00.000Z",
        "end": "2016-02-26T00:00:00.000Z",
        "total_days": 1,
        "accompanied_by": null,
        "notes": "rally",
        "stops": [{
            "id": 49172,
            "placeid": 242,
            "city": "Dallas",
            "state": "TX",
            "lat": 32.7761963,
            "lng": -96.7968994
        }
        ]
    }, {
        "tripid": 21272,
        "candidate": "Bernie Sanders",
        "state": "IL",
        "start": "2016-02-25T00:00:00.000Z",
        "end": "2016-02-25T00:00:00.000Z",
        "total_days": 1,
        "accompanied_by": null,
        "notes": "college tour with MSNBC, rally",
        "stops": [{
            "id": 49042,
            "placeid": 392,
            "city": "Chicago",
            "state": "IL",
            "lat": 41.8755546,
            "lng": -87.6244212
        }
        ]
    }, {
        "tripid": 21282,
        "candidate": "Bernie Sanders",
        "state": "MI",
        "start": "2016-02-25T00:00:00.000Z",
        "end": "2016-02-25T00:00:00.000Z",
        "total_days": 1,
        "accompanied_by": null,
        "notes": "community forum ",
        "stops": [{
            "id": 49052,
            "placeid": 7872,
            "city": "Flint",
            "state": "MI",
            "lat": 43.0171773,
            "lng": -83.7236024
        }
        ]
    }, {
        "tripid": 21292,
        "candidate": "Donald Trump",
        "state": "TX",
        "start": "2016-02-25T00:00:00.000Z",
        "end": "2016-02-26T00:00:00.000Z",
        "total_days": 2,
        "accompanied_by": null,
        "notes": "CNN Debate, rally",
        "stops": [{
            "id": 49062,
            "placeid": 1362,
            "city": "Houston",
            "state": "TX",
            "lat": 29.951919,
            "lng": -95.5409143301668
        }, {
            "id": 49072,
            "placeid": 1412,
            "city": "Fort Worth",
            "state": "TX",
            "lat": 32.753177,
            "lng": -97.3327459
        }
        ]
    }, {
        "tripid": 21252,
        "candidate": "Marco Rubio",
        "state": "TX",
        "start": "2016-02-24T00:00:00.000Z",
        "end": "2016-02-26T00:00:00.000Z",
        "total_days": 2,
        "accompanied_by": null,
        "notes": "Campaign event; CNN Debate; rally",
        "stops": [{
            "id": 49012,
            "placeid": 1362,
            "city": "Houston",
            "state": "TX",
            "lat": 29.951919,
            "lng": -95.5409143301668
        }, {
            "id": 49022,
            "placeid": 242,
            "city": "Dallas",
            "state": "TX",
            "lat": 32.7761963,
            "lng": -96.7968994
        }
        ]
    }, {
        "tripid": 21262,
        "candidate": "Ben Carson",
        "state": "TX",
        "start": "2016-02-24T00:00:00.000Z",
        "end": "2016-02-25T00:00:00.000Z",
        "total_days": 2,
        "accompanied_by": null,
        "notes": "GOP dinner, town hall, CNN Debate",
        "stops": [{
            "id": 49032,
            "placeid": 1362,
            "city": "Houston",
            "state": "TX",
            "lat": 29.951919,
            "lng": -95.5409143301668
        }
        ]
    }, {
        "tripid": 21202,
        "candidate": "John Kasich",
        "state": "MS",
        "start": "2016-02-24T00:00:00.000Z",
        "end": "2016-02-24T00:00:00.000Z",
        "total_days": 1,
        "accompanied_by": null,
        "notes": "Town hall",
        "stops": [{
            "id": 48962,
            "placeid": 61872,
            "city": "Gulfport",
            "state": "MS",
            "lat": 30.3674198,
            "lng": -89.0928154
        }
        ]
    }, {
        "tripid": 21212,
        "candidate": "Donald Trump",
        "state": "VA",
        "start": "2016-02-24T00:00:00.000Z",
        "end": "2016-02-24T00:00:00.000Z",
        "total_days": 1,
        "accompanied_by": null,
        "notes": "Presidential Candidate Forum",
        "stops": [{
            "id": 48972,
            "placeid": 62212,
            "city": "Virgina Beach",
            "state": "VA",
            "lat": 30.8232252,
            "lng": 29.1672411207875
        }
        ]
    }, {
        "tripid": 21222,
        "candidate": "Bernie Sanders",
        "state": "OK",
        "start": "2016-02-24T00:00:00.000Z",
        "end": "2016-02-24T00:00:00.000Z",
        "total_days": 1,
        "accompanied_by": null,
        "notes": "Rally",
        "stops": [{
            "id": 48982,
            "placeid": 6852,
            "city": "Tulsa",
            "state": "OK",
            "lat": 36.1556805,
            "lng": -95.9929113
        }
        ]
    }, {
        "tripid": 21232,
        "candidate": "Bernie Sanders",
        "state": "MO",
        "start": "2016-02-24T00:00:00.000Z",
        "end": "2016-02-24T00:00:00.000Z",
        "total_days": 1,
        "accompanied_by": null,
        "notes": "rally",
        "stops": [{
            "id": 48992,
            "placeid": 2172,
            "city": "Kansas City",
            "state": "MO",
            "lat": 39.0844687,
            "lng": -94.5630298
        }
        ]
    }, {
        "tripid": 21242,
        "candidate": "John Kasich",
        "state": "LA",
        "start": "2016-02-24T00:00:00.000Z",
        "end": "2016-02-24T00:00:00.000Z",
        "total_days": 1,
        "accompanied_by": null,
        "notes": "town hall",
        "stops": [{
            "id": 49002,
            "placeid": 4912,
            "city": "New Orleans",
            "state": "LA",
            "lat": 29.9499323,
            "lng": -90.0701156
        }
        ]
    }, {
        "tripid": 21132,
        "candidate": "John Kasich",
        "state": "GA",
        "start": "2016-02-23T00:00:00.000Z",
        "end": "2016-02-23T00:00:00.000Z",
        "total_days": 1,
        "accompanied_by": null,
        "notes": "Town halls; Address to George House of Representatives",
        "stops": [{
            "id": 48802,
            "placeid": 5952,
            "city": "Sandy Springs",
            "state": "GA",
            "lat": 33.9242688,
            "lng": -84.3785379
        }, {
            "id": 48812,
            "placeid": 45522,
            "city": "Kennesaw",
            "state": "GA",
            "lat": 34.0234337,
            "lng": -84.6154897
        }, {
            "id": 48822,
            "placeid": 3162,
            "city": "Atlanta",
            "state": "GA",
            "lat": 33.7490987,
            "lng": -84.3901849
        }
        ]
    }, {
        "tripid": 21142,
        "candidate": "Ben Carson",
        "state": "NV",
        "start": "2016-02-23T00:00:00.000Z",
        "end": "2016-02-23T00:00:00.000Z",
        "total_days": 1,
        "accompanied_by": null,
        "notes": "Town hall",
        "stops": [{
            "id": 48832,
            "placeid": 672,
            "city": "Las Vegas",
            "state": "NV",
            "lat": 36.1662859,
            "lng": -115.149225
        }, {
            "id": 48842,
            "placeid": 7252,
            "city": "Henderson",
            "state": "NV",
            "lat": 36.0391456,
            "lng": -114.9819235
        }
        ]
    }, {
        "tripid": 21152,
        "candidate": "Marco Rubio",
        "state": "MN",
        "start": "2016-02-23T00:00:00.000Z",
        "end": "2016-02-23T00:00:00.000Z",
        "total_days": 1,
        "accompanied_by": null,
        "notes": "Rally",
        "stops": [{
            "id": 48852,
            "placeid": 6232,
            "city": "Minneapolis",
            "state": "MN",
            "lat": 44.9772995,
            "lng": -93.2654692
        }
        ]
    }, {
        "tripid": 21162,
        "candidate": "Marco Rubio",
        "state": "MI",
        "start": "2016-02-23T00:00:00.000Z",
        "end": "2016-02-23T00:00:00.000Z",
        "total_days": 1,
        "accompanied_by": null,
        "notes": "Rally",
        "stops": [{
            "id": 48862,
            "placeid": 5402,
            "city": "Grand Rapids",
            "state": "MI",
            "lat": 42.9632405,
            "lng": -85.6678639
        }
        ]
    }, {
        "tripid": 21172,
        "candidate": "Bernie Sanders",
        "state": "VA",
        "start": "2016-02-23T00:00:00.000Z",
        "end": "2016-02-23T00:00:00.000Z",
        "total_days": 1,
        "accompanied_by": null,
        "notes": "Rally",
        "stops": [{
            "id": 48872,
            "placeid": 9652,
            "city": "Norfolk",
            "state": "VA",
            "lat": 36.9306505,
            "lng": -76.2573110672108
        }
        ]
    }, {
        "tripid": 21182,
        "candidate": "Ted Cruz",
        "state": "NV",
        "start": "2016-02-23T00:00:00.000Z",
        "end": "2016-02-23T00:00:00.000Z",
        "total_days": 1,
        "accompanied_by": null,
        "notes": "Rally",
        "stops": [{
            "id": 48882,
            "placeid": 672,
            "city": "Las Vegas",
            "state": "NV",
            "lat": 36.1662859,
            "lng": -115.149225
        }
        ]
    }, {
        "tripid": 21192,
        "candidate": "Hillary Clinton",
        "state": "SC",
        "start": "2016-02-23T00:00:00.000Z",
        "end": "2016-02-26T00:00:00.000Z",
        "total_days": 4,
        "accompanied_by": "Sybrina Fulton, Geneva Reed-Veal, Gwen Carr, Maria Hamilton, Lucy McBath, Cory Booker",
        "notes": "Forums; Alpha Kappa Alpha Sorority Statewide Luncheon; town halls; Get Out the Vote event; Rally",
        "stops": [{
            "id": 48892,
            "placeid": 352,
            "city": "Columbia",
            "state": "SC",
            "lat": 34.0007493,
            "lng": -81.0343313
        }, {
            "id": 48902,
            "placeid": 9372,
            "city": "Sumter",
            "state": "SC",
            "lat": 33.9204354,
            "lng": -80.3414693
        }, {
            "id": 48912,
            "placeid": 61862,
            "city": "Kingstree",
            "state": "SC",
            "lat": 33.6676643,
            "lng": -79.8306264
        }, {
            "id": 48922,
            "placeid": 6182,
            "city": "Florence",
            "state": "SC",
            "lat": 34.1984435,
            "lng": -79.7671658
        }, {
            "id": 48932,
            "placeid": 62,
            "city": "Myrtle Beach",
            "state": "SC",
            "lat": 33.6956461,
            "lng": -78.8900409
        }, {
            "id": 48942,
            "placeid": 6002,
            "city": "North Charleston",
            "state": "SC",
            "lat": 32.8546197,
            "lng": -79.9748103
        }, {
            "id": 48952,
            "placeid": 6962,
            "city": "Orangeburg",
            "state": "SC",
            "lat": 33.4918203,
            "lng": -80.8556476
        }
        ]
    }, {
        "tripid": 21102,
        "candidate": "Donald Trump",
        "state": "NV",
        "start": "2016-02-22T00:00:00.000Z",
        "end": "2016-02-23T00:00:00.000Z",
        "total_days": 2,
        "accompanied_by": null,
        "notes": "rallies",
        "stops": [{
            "id": 48732,
            "placeid": 672,
            "city": "Las Vegas",
            "state": "NV",
            "lat": 36.1662859,
            "lng": -115.149225
        }, {
            "id": 48742,
            "placeid": 45752,
            "city": "Sparks",
            "state": "NV",
            "lat": 39.5348431,
            "lng": -119.7527683
        }, {
            "id": 48752,
            "placeid": 7302,
            "city": "Elko",
            "state": "NV",
            "lat": 40.8324212,
            "lng": -115.7631233
        }
        ]
    }, {
        "tripid": 21112,
        "candidate": "John Kasich",
        "state": "VA",
        "start": "2016-02-22T00:00:00.000Z",
        "end": "2016-02-22T00:00:00.000Z",
        "total_days": 1,
        "accompanied_by": null,
        "notes": "Town halls; \"Coversation at the Miller Center\"",
        "stops": [{
            "id": 48762,
            "placeid": 7182,
            "city": "Fairfax",
            "state": "VA",
            "lat": 38.8462236,
            "lng": -77.3063733
        }, {
            "id": 48772,
            "placeid": 5672,
            "city": "Charlottesville",
            "state": "VA",
            "lat": 38.029306,
            "lng": -78.4766781
        }, {
            "id": 48782,
            "placeid": 1262,
            "city": "Richmond",
            "state": "VA",
            "lat": 37.5385087,
            "lng": -77.43428
        }
        ]
    }, {
        "tripid": 21122,
        "candidate": "Bernie Sanders",
        "state": "MA",
        "start": "2016-02-22T00:00:00.000Z",
        "end": "2016-02-22T00:00:00.000Z",
        "total_days": 1,
        "accompanied_by": null,
        "notes": "Rally",
        "stops": [{
            "id": 48792,
            "placeid": 49752,
            "city": "Amherst",
            "state": "MA",
            "lat": 42.3803676,
            "lng": -72.523143
        }
        ]
    }, {
        "tripid": 21042,
        "candidate": "Donald Trump",
        "state": "GA",
        "start": "2016-02-21T00:00:00.000Z",
        "end": "2016-02-21T00:00:00.000Z",
        "total_days": 1,
        "accompanied_by": null,
        "notes": "rally",
        "stops": [{
            "id": 48642,
            "placeid": 3162,
            "city": "Atlanta",
            "state": "GA",
            "lat": 33.7490987,
            "lng": -84.3901849
        }
        ]
    }, {
        "tripid": 21052,
        "candidate": "Ted Cruz",
        "state": "NV",
        "start": "2016-02-21T00:00:00.000Z",
        "end": "2016-02-21T00:00:00.000Z",
        "total_days": 1,
        "accompanied_by": "Glenn Beck",
        "notes": "Rally",
        "stops": [{
            "id": 48652,
            "placeid": 7252,
            "city": "Henderson",
            "state": "NV",
            "lat": 36.0391456,
            "lng": -114.9819235
        }
        ]
    }, {
        "tripid": 21062,
        "candidate": "Marco Rubio",
        "state": "TN",
        "start": "2016-02-21T00:00:00.000Z",
        "end": "2016-02-22T00:00:00.000Z",
        "total_days": 1,
        "accompanied_by": null,
        "notes": "rally",
        "stops": [{
            "id": 48662,
            "placeid": 7792,
            "city": "Franklin",
            "state": "TN",
            "lat": 35.1680139,
            "lng": -86.1084401
        }
        ]
    }, {
        "tripid": 21072,
        "candidate": "Marco Rubio",
        "state": "AR",
        "start": "2016-02-21T00:00:00.000Z",
        "end": "2016-02-21T00:00:00.000Z",
        "total_days": 1,
        "accompanied_by": null,
        "notes": "rally",
        "stops": [{
            "id": 48672,
            "placeid": 1742,
            "city": "Little Rock",
            "state": "AR",
            "lat": 34.7464809,
            "lng": -92.2895948
        }
        ]
    }, {
        "tripid": 21082,
        "candidate": "Marco Rubio",
        "state": "NV",
        "start": "2016-02-21T00:00:00.000Z",
        "end": "2016-02-23T00:00:00.000Z",
        "total_days": 3,
        "accompanied_by": null,
        "notes": "Rallies",
        "stops": [{
            "id": 48682,
            "placeid": 9122,
            "city": "North Las Vegas",
            "state": "NV",
            "lat": 36.2008371,
            "lng": -115.1120958
        }, {
            "id": 48692,
            "placeid": 7302,
            "city": "Elko",
            "state": "NV",
            "lat": 40.8324212,
            "lng": -115.7631233
        }, {
            "id": 48702,
            "placeid": 61512,
            "city": "Washoe",
            "state": "NV",
            "lat": 40.5849048,
            "lng": -119.6131605
        }, {
            "id": 48712,
            "placeid": 61522,
            "city": "Douglas",
            "state": "NV",
            "lat": 38.9072611,
            "lng": -119.6201823
        }
        ]
    }, {
        "tripid": 21092,
        "candidate": "Bernie Sanders",
        "state": "SC",
        "start": "2016-02-21T00:00:00.000Z",
        "end": "2016-02-21T00:00:00.000Z",
        "total_days": 1,
        "accompanied_by": null,
        "notes": "Rally",
        "stops": [{
            "id": 48722,
            "placeid": 1352,
            "city": "Greenville",
            "state": "SC",
            "lat": 34.851354,
            "lng": -82.3984882
        }
        ]
    }, {
        "tripid": 21002,
        "candidate": "Ted Cruz",
        "state": "DC",
        "start": "2016-02-20T00:00:00.000Z",
        "end": "2016-02-20T00:00:00.000Z",
        "total_days": 1,
        "accompanied_by": null,
        "notes": null,
        "stops": [{
            "id": 48592,
            "placeid": 112,
            "city": "Washington",
            "state": "DC",
            "lat": 38.8949549,
            "lng": -77.0366456
        }
        ]
    }, {
        "tripid": 21012,
        "candidate": "Hillary Clinton",
        "state": "TX",
        "start": "2016-02-20T00:00:00.000Z",
        "end": "2016-02-20T00:00:00.000Z",
        "total_days": 1,
        "accompanied_by": null,
        "notes": "Organizing event",
        "stops": [{
            "id": 48602,
            "placeid": 1362,
            "city": "Houston",
            "state": "TX",
            "lat": 29.951919,
            "lng": -95.5409143301668
        }
        ]
    }, {
        "tripid": 21022,
        "candidate": "John Kasich",
        "state": "VT",
        "start": "2016-02-20T00:00:00.000Z",
        "end": "2016-02-20T00:00:00.000Z",
        "total_days": 1,
        "accompanied_by": null,
        "notes": "town hall ",
        "stops": [{
            "id": 48612,
            "placeid": 10832,
            "city": "Burlington",
            "state": "VT",
            "lat": 44.4723989,
            "lng": -73.2114941
        }
        ]
    }, {
        "tripid": 21032,
        "candidate": "John Kasich",
        "state": "MA",
        "start": "2016-02-20T00:00:00.000Z",
        "end": "2016-02-20T00:00:00.000Z",
        "total_days": 1,
        "accompanied_by": null,
        "notes": "Results watch party, town hall",
        "stops": [{
            "id": 48622,
            "placeid": 60842,
            "city": "Wakefield",
            "state": "MA",
            "lat": 42.506484,
            "lng": -71.0728305
        }, {
            "id": 48632,
            "placeid": 20482,
            "city": "Worcester",
            "state": "MA",
            "lat": 42.2625932,
            "lng": -71.8022934
        }
        ]
    }, {
        "tripid": 20992,
        "candidate": "Ted Cruz",
        "state": "SC",
        "start": "2016-02-19T00:00:00.000Z",
        "end": "2016-02-19T00:00:00.000Z",
        "total_days": 1,
        "accompanied_by": "Phil Robertson, Sean Hannity",
        "notes": "Rally",
        "stops": [{
            "id": 48552,
            "placeid": 3752,
            "city": "Charleston",
            "state": "SC",
            "lat": 32.7876012,
            "lng": -79.9402728
        }, {
            "id": 48562,
            "placeid": 62,
            "city": "Myrtle Beach",
            "state": "SC",
            "lat": 33.6956461,
            "lng": -78.8900409
        }, {
            "id": 48572,
            "placeid": 3232,
            "city": "West Columbia",
            "state": "SC",
            "lat": 34.001143,
            "lng": -81.0630526139516
        }, {
            "id": 48582,
            "placeid": 1352,
            "city": "Greenville",
            "state": "SC",
            "lat": 34.851354,
            "lng": -82.3984882
        }
        ]
    }, {
        "tripid": 20952,
        "candidate": "Hillary Clinton",
        "state": "NV",
        "start": "2016-02-19T00:00:00.000Z",
        "end": "2016-02-20T00:00:00.000Z",
        "total_days": 2,
        "accompanied_by": "Chelsea Clinton, Bil Clinton, Eva Longoria, Luis Coronel",
        "notes": "Get out the caucus event, town halls, caucus event",
        "stops": [{
            "id": 48452,
            "placeid": 60432,
            "city": "Vegas",
            "state": "NV",
            "lat": 36.27220735,
            "lng": -115.010375293626
        }
        ]
    }, {
        "tripid": 20962,
        "candidate": "Marco Rubio",
        "state": "SC",
        "start": "2016-02-19T00:00:00.000Z",
        "end": "2016-02-19T00:00:00.000Z",
        "total_days": 1,
        "accompanied_by": "Nikki Haley, Tim Scott",
        "notes": "Rallies",
        "stops": [{
            "id": 48462,
            "placeid": 352,
            "city": "Columbia",
            "state": "SC",
            "lat": 34.0007493,
            "lng": -81.0343313
        }, {
            "id": 48472,
            "placeid": 60442,
            "city": "Pawley's Island",
            "state": "SC",
            "lat": 33.4293486,
            "lng": -79.1215911
        }, {
            "id": 48482,
            "placeid": 8312,
            "city": "Hilton Head",
            "state": "SC",
            "lat": 32.216316,
            "lng": -80.752608
        }, {
            "id": 48492,
            "placeid": 3752,
            "city": "Charleston",
            "state": "SC",
            "lat": 32.7876012,
            "lng": -79.9402728
        }, {
            "id": 48502,
            "placeid": 60072,
            "city": "Clemson",
            "state": "SC",
            "lat": 34.6850749,
            "lng": -82.836411
        }
        ]
    }, {
        "tripid": 20972,
        "candidate": "Jeb Bush",
        "state": "SC",
        "start": "2016-02-19T00:00:00.000Z",
        "end": "2016-02-19T00:00:00.000Z",
        "total_days": 1,
        "accompanied_by": "Barbara Bush",
        "notes": "Meet and greets, rally",
        "stops": [{
            "id": 48512,
            "placeid": 1272,
            "city": "Spartanburg",
            "state": "SC",
            "lat": 34.9498007,
            "lng": -81.9320157
        }, {
            "id": 48522,
            "placeid": 1352,
            "city": "Greenville",
            "state": "SC",
            "lat": 34.851354,
            "lng": -82.3984882
        }, {
            "id": 48532,
            "placeid": 60452,
            "city": "Central",
            "state": "SC",
            "lat": -47.1212169,
            "lng": -66.6853999294568
        }
        ]
    }, {
        "tripid": 20982,
        "candidate": "Donald Trump",
        "state": "SC",
        "start": "2016-02-19T00:00:00.000Z",
        "end": "2016-02-19T00:00:00.000Z",
        "total_days": 1,
        "accompanied_by": null,
        "notes": "rally",
        "stops": [{
            "id": 48542,
            "placeid": 46392,
            "city": "Pawleys Island",
            "state": "SC",
            "lat": 33.4293486,
            "lng": -79.1215912
        }
        ]
    }, {
        "tripid": 20932,
        "candidate": "Bernie Sanders",
        "state": "NV",
        "start": "2016-02-18T00:00:00.000Z",
        "end": "2016-02-19T00:00:00.000Z",
        "total_days": 2,
        "accompanied_by": null,
        "notes": "MSNBC Forum; Clark County \"1st in the West Kick-Off to Caucus\" Dinner; town hall; Concert; Rallies",
        "stops": [{
            "id": 48342,
            "placeid": 672,
            "city": "Las Vegas",
            "state": "NV",
            "lat": 36.1662859,
            "lng": -115.149225
        }, {
            "id": 48352,
            "placeid": 7302,
            "city": "Elko",
            "state": "NV",
            "lat": 40.8324212,
            "lng": -115.7631233
        }, {
            "id": 48362,
            "placeid": 45752,
            "city": "Sparks",
            "state": "NV",
            "lat": 39.5348431,
            "lng": -119.7527683
        }, {
            "id": 48372,
            "placeid": 7252,
            "city": "Henderson",
            "state": "NV",
            "lat": 36.0391456,
            "lng": -114.9819235
        }
        ]
    }, {
        "tripid": 20942,
        "candidate": "John Kasich",
        "state": "SC",
        "start": "2016-02-18T00:00:00.000Z",
        "end": "2016-02-19T00:00:00.000Z",
        "total_days": 2,
        "accompanied_by": "Colonel Tom Moe",
        "notes": "Town halls; Citadel Republican Society Dinner",
        "stops": [{
            "id": 48382,
            "placeid": 1962,
            "city": "Mount Pleasant",
            "state": "SC",
            "lat": 32.7940651,
            "lng": -79.8625851
        }, {
            "id": 48392,
            "placeid": 60072,
            "city": "Clemson",
            "state": "SC",
            "lat": 34.6850749,
            "lng": -82.836411
        }, {
            "id": 48402,
            "placeid": 6192,
            "city": "Fort Mill",
            "state": "SC",
            "lat": 35.0073697,
            "lng": -80.9450759
        }, {
            "id": 48412,
            "placeid": 352,
            "city": "Columbia",
            "state": "SC",
            "lat": 34.0007493,
            "lng": -81.0343313
        }, {
            "id": 48422,
            "placeid": 8242,
            "city": "Conway",
            "state": "SC",
            "lat": 33.8360035,
            "lng": -79.0478143
        }, {
            "id": 48432,
            "placeid": 4742,
            "city": "Mt. Pleasant",
            "state": "SC",
            "lat": 32.7940651,
            "lng": -79.8625851
        }, {
            "id": 48442,
            "placeid": 3752,
            "city": "Charleston",
            "state": "SC",
            "lat": 32.7876012,
            "lng": -79.9402728
        }
        ]
    }, {
        "tripid": 20872,
        "candidate": "Ted Cruz",
        "state": "SC",
        "start": "2016-02-17T00:00:00.000Z",
        "end": "2016-02-18T00:00:00.000Z",
        "total_days": 2,
        "accompanied_by": null,
        "notes": "Meet and greets, rallies",
        "stops": [{
            "id": 48122,
            "placeid": 9442,
            "city": "Seneca",
            "state": "SC",
            "lat": 34.6865321,
            "lng": -82.9527288
        }, {
            "id": 48132,
            "placeid": 1272,
            "city": "Spartanburg",
            "state": "SC",
            "lat": 34.9498007,
            "lng": -81.9320157
        }, {
            "id": 48142,
            "placeid": 59222,
            "city": "Easley",
            "state": "SC",
            "lat": 34.8269276,
            "lng": -82.5817052
        }
        ]
    }, {
        "tripid": 20892,
        "candidate": "John Kasich",
        "state": "VA",
        "start": "2016-02-17T00:00:00.000Z",
        "end": "2016-02-17T00:00:00.000Z",
        "total_days": 1,
        "accompanied_by": null,
        "notes": "town halls",
        "stops": [{
            "id": 48162,
            "placeid": 7182,
            "city": "Fairfax",
            "state": "VA",
            "lat": 38.8462236,
            "lng": -77.3063733
        }, {
            "id": 48172,
            "placeid": 1262,
            "city": "Richmond",
            "state": "VA",
            "lat": 37.5385087,
            "lng": -77.43428
        }
        ]
    }, {
        "tripid": 20902,
        "candidate": "Donald Trump",
        "state": "SC",
        "start": "2016-02-17T00:00:00.000Z",
        "end": "2016-02-19T00:00:00.000Z",
        "total_days": 3,
        "accompanied_by": null,
        "notes": "rallies",
        "stops": [{
            "id": 48182,
            "placeid": 8302,
            "city": "Walterboro",
            "state": "SC",
            "lat": 32.9051704,
            "lng": -80.6667688
        }, {
            "id": 48192,
            "placeid": 72,
            "city": "Bluffton",
            "state": "SC",
            "lat": 32.2371465,
            "lng": -80.8603868
        }, {
            "id": 48202,
            "placeid": 9372,
            "city": "Sumter",
            "state": "SC",
            "lat": 33.9204354,
            "lng": -80.3414693
        }, {
            "id": 48212,
            "placeid": 60082,
            "city": "Kiawah Island",
            "state": "SC",
            "lat": 32.6082373,
            "lng": -80.0848165
        }, {
            "id": 48222,
            "placeid": 6832,
            "city": "Gaffney",
            "state": "SC",
            "lat": 35.0717945,
            "lng": -81.6498195
        }, {
            "id": 48232,
            "placeid": 62,
            "city": "Myrtle Beach",
            "state": "SC",
            "lat": 33.6956461,
            "lng": -78.8900409
        }
        ]
    }, {
        "tripid": 20912,
        "candidate": "Hillary Clinton",
        "state": "IL",
        "start": "2016-02-17T00:00:00.000Z",
        "end": "2016-02-17T00:00:00.000Z",
        "total_days": 1,
        "accompanied_by": null,
        "notes": "Organizing event",
        "stops": [{
            "id": 48242,
            "placeid": 392,
            "city": "Chicago",
            "state": "IL",
            "lat": 41.8755546,
            "lng": -87.6244212
        }
        ]
    }, {
        "tripid": 20922,
        "candidate": "Ben Carson",
        "state": "SC",
        "start": "2016-02-17T00:00:00.000Z",
        "end": "2016-02-20T00:00:00.000Z",
        "total_days": 3,
        "accompanied_by": "NFL New Orleans Saints player Benjamin Watson",
        "notes": null,
        "stops": [{
            "id": 48252,
            "placeid": 352,
            "city": "Columbia",
            "state": "SC",
            "lat": 34.0007493,
            "lng": -81.0343313
        }, {
            "id": 48262,
            "placeid": 6962,
            "city": "Orangeburg",
            "state": "SC",
            "lat": 33.4918203,
            "lng": -80.8556476
        }, {
            "id": 48272,
            "placeid": 1352,
            "city": "Greenville",
            "state": "SC",
            "lat": 34.851354,
            "lng": -82.3984882
        }, {
            "id": 48282,
            "placeid": 6182,
            "city": "Florence",
            "state": "SC",
            "lat": 34.1984435,
            "lng": -79.7671658
        }, {
            "id": 48292,
            "placeid": 32102,
            "city": "Greenwood",
            "state": "SC",
            "lat": 34.1954001,
            "lng": -82.1617883
        }, {
            "id": 48302,
            "placeid": 60422,
            "city": "Newbury",
            "state": "SC",
            "lat": 34.568457,
            "lng": -83.0980289
        }, {
            "id": 48312,
            "placeid": 1272,
            "city": "Spartanburg",
            "state": "SC",
            "lat": 34.9498007,
            "lng": -81.9320157
        }, {
            "id": 48322,
            "placeid": 6192,
            "city": "Fort Mill",
            "state": "SC",
            "lat": 35.0073697,
            "lng": -80.9450759
        }, {
            "id": 48332,
            "placeid": 60832,
            "city": "Clover",
            "state": "SC",
            "lat": 35.112711,
            "lng": -81.2261540781372
        }
        ]
    }, {
        "tripid": 20842,
        "candidate": "Bernie Sanders",
        "state": "GA",
        "start": "2016-02-16T00:00:00.000Z",
        "end": "2016-02-16T00:00:00.000Z",
        "total_days": 1,
        "accompanied_by": null,
        "notes": "HBCU Tour and rally",
        "stops": [{
            "id": 48032,
            "placeid": 3162,
            "city": "Atlanta",
            "state": "GA",
            "lat": 33.7490987,
            "lng": -84.3901849
        }
        ]
    }, {
        "tripid": 20852,
        "candidate": "Bernie Sanders",
        "state": "SC",
        "start": "2016-02-16T00:00:00.000Z",
        "end": "2016-02-16T00:00:00.000Z",
        "total_days": 1,
        "accompanied_by": "Shirley Murdoch",
        "notes": "Faith Leaders Prayer Breakfast; town hall",
        "stops": [{
            "id": 48042,
            "placeid": 352,
            "city": "Columbia",
            "state": "SC",
            "lat": 34.0007493,
            "lng": -81.0343313
        }, {
            "id": 48052,
            "placeid": 3752,
            "city": "Charleston",
            "state": "SC",
            "lat": 32.7876012,
            "lng": -79.9402728
        }
        ]
    }, {
        "tripid": 20862,
        "candidate": "John Kasich",
        "state": "SC",
        "start": "2016-02-16T00:00:00.000Z",
        "end": "2016-02-19T00:00:00.000Z",
        "total_days": 4,
        "accompanied_by": null,
        "notes": "Meet and greet; town halls; rallies",
        "stops": [{
            "id": 48062,
            "placeid": 1352,
            "city": "Greenville",
            "state": "SC",
            "lat": 34.851354,
            "lng": -82.3984882
        }, {
            "id": 48072,
            "placeid": 3402,
            "city": "Cayce",
            "state": "SC",
            "lat": 33.938553,
            "lng": -81.0716683642166
        }, {
            "id": 48082,
            "placeid": 72,
            "city": "Bluffton",
            "state": "SC",
            "lat": 32.2371465,
            "lng": -80.8603868
        }, {
            "id": 48092,
            "placeid": 60072,
            "city": "Clemson",
            "state": "SC",
            "lat": 34.6850749,
            "lng": -82.836411
        }, {
            "id": 48102,
            "placeid": 6192,
            "city": "Fort Mill",
            "state": "SC",
            "lat": 35.0073697,
            "lng": -80.9450759
        }, {
            "id": 48112,
            "placeid": 4742,
            "city": "Mt. Pleasant",
            "state": "SC",
            "lat": 32.7940651,
            "lng": -79.8625851
        }
        ]
    }, {
        "tripid": 20882,
        "candidate": "Donald Trump",
        "state": "SC",
        "start": "2016-02-16T00:00:00.000Z",
        "end": "2016-02-16T00:00:00.000Z",
        "total_days": 1,
        "accompanied_by": null,
        "notes": null,
        "stops": [{
            "id": 48152,
            "placeid": 8322,
            "city": "Beaufort",
            "state": "SC",
            "lat": 32.4315813,
            "lng": -80.6698286
        }
        ]
    }, {
        "tripid": 20812,
        "candidate": "John Kasich",
        "state": "MI",
        "start": "2016-02-15T00:00:00.000Z",
        "end": "2016-02-16T00:00:00.000Z",
        "total_days": 2,
        "accompanied_by": "Arlan Meekhof, Pete Hoekstra",
        "notes": "Town halls",
        "stops": [{
            "id": 47972,
            "placeid": 59662,
            "city": "Allendale",
            "state": "MI",
            "lat": 42.9722455,
            "lng": -85.9536534
        }, {
            "id": 47982,
            "placeid": 59672,
            "city": "Utica",
            "state": "MI",
            "lat": 43.1009031,
            "lng": -75.232664
        }, {
            "id": 47992,
            "placeid": 59682,
            "city": "Livonia",
            "state": "MI",
            "lat": 42.36837,
            "lng": -83.3527096
        }
        ]
    }, {
        "tripid": 20822,
        "candidate": "Donald Trump",
        "state": "SC",
        "start": "2016-02-15T00:00:00.000Z",
        "end": "2016-02-15T00:00:00.000Z",
        "total_days": 1,
        "accompanied_by": null,
        "notes": "Rally",
        "stops": [{
            "id": 48002,
            "placeid": 1352,
            "city": "Greenville",
            "state": "SC",
            "lat": 34.851354,
            "lng": -82.3984882
        }
        ]
    }, {
        "tripid": 20832,
        "candidate": "Bernie Sanders",
        "state": "MI",
        "start": "2016-02-15T00:00:00.000Z",
        "end": "2016-02-15T00:00:00.000Z",
        "total_days": 1,
        "accompanied_by": null,
        "notes": "Rallies",
        "stops": [{
            "id": 48012,
            "placeid": 41102,
            "city": "Ypsilanti",
            "state": "MI",
            "lat": 42.2411499,
            "lng": -83.6129939
        }, {
            "id": 48022,
            "placeid": 60062,
            "city": "Dearborn",
            "state": "MI",
            "lat": 42.3222599,
            "lng": -83.1763144
        }
        ]
    }, {
        "tripid": 20782,
        "candidate": "Bernie Sanders",
        "state": "CO",
        "start": "2016-02-13T00:00:00.000Z",
        "end": "2016-02-13T00:00:00.000Z",
        "total_days": 1,
        "accompanied_by": null,
        "notes": "Rally",
        "stops": [{
            "id": 47952,
            "placeid": 4342,
            "city": "Denver",
            "state": "CO",
            "lat": 39.7391536,
            "lng": -104.9847034
        }
        ]
    }, {
        "tripid": 20802,
        "candidate": "Hillary Clinton",
        "state": "NV",
        "start": "2016-02-13T00:00:00.000Z",
        "end": "2016-02-14T00:00:00.000Z",
        "total_days": 2,
        "accompanied_by": null,
        "notes": null,
        "stops": []
    }, {
        "tripid": 20752,
        "candidate": "Donald Trump",
        "state": "SFL",
        "start": "2016-02-12T00:00:00.000Z",
        "end": "2016-02-12T00:00:00.000Z",
        "total_days": 1,
        "accompanied_by": null,
        "notes": "Rally",
        "stops": [{
            "id": 50232,
            "placeid": 65872,
            "city": "Tampa",
            "state": "SFL",
            "lat": 0,
            "lng": 0
        }
        ]
    }, {
        "tripid": 20762,
        "candidate": "Hillary Clinton",
        "state": "MN",
        "start": "2016-02-12T00:00:00.000Z",
        "end": "2016-02-12T00:00:00.000Z",
        "total_days": 1,
        "accompanied_by": null,
        "notes": "Minnesota state Democratic Party dinner ",
        "stops": []
    }, {
        "tripid": 20772,
        "candidate": "Bernie Sanders",
        "state": "MN",
        "start": "2016-02-12T00:00:00.000Z",
        "end": "2016-02-12T00:00:00.000Z",
        "total_days": 1,
        "accompanied_by": null,
        "notes": "Forum on race and economic oppportunity; Minnesota state Democratic Party dinner",
        "stops": [{
            "id": 47932,
            "placeid": 6232,
            "city": "Minneapolis",
            "state": "MN",
            "lat": 44.9772995,
            "lng": -93.2654692
        }, {
            "id": 47942,
            "placeid": 5212,
            "city": "St. Paul",
            "state": "MN",
            "lat": 44.9504037,
            "lng": -93.1015026
        }
        ]
    }, {
        "tripid": 20792,
        "candidate": "Hillary Clinton",
        "state": "SC",
        "start": "2016-02-12T00:00:00.000Z",
        "end": "2016-02-12T00:00:00.000Z",
        "total_days": 1,
        "accompanied_by": null,
        "notes": "Town hall",
        "stops": [{
            "id": 47962,
            "placeid": 59272,
            "city": "Denmark",
            "state": "SC",
            "lat": 33.3226546,
            "lng": -81.1423235
        }
        ]
    }, {
        "tripid": 20742,
        "candidate": "Donald Trump",
        "state": "LA",
        "start": "2016-02-11T00:00:00.000Z",
        "end": "2016-02-11T00:00:00.000Z",
        "total_days": 1,
        "accompanied_by": null,
        "notes": "Rally",
        "stops": [{
            "id": 47922,
            "placeid": 42,
            "city": "Baton Rouge",
            "state": "LA",
            "lat": 30.4507462,
            "lng": -91.154551
        }
        ]
    }, {
        "tripid": 20732,
        "candidate": "Ben Carson",
        "state": "SC",
        "start": "2016-02-11T00:00:00.000Z",
        "end": "2016-02-16T00:00:00.000Z",
        "total_days": 6,
        "accompanied_by": null,
        "notes": "American APPS meeting; Reconciled Church 2016 Presidential Forum; 2016 Faith and Family Presidential Forum; CBS Presidential Debate; town halls; meet and greet; \"Last Word in the South\" Presidential Forum",
        "stops": [{
            "id": 47832,
            "placeid": 6832,
            "city": "Gaffney",
            "state": "SC",
            "lat": 35.0717945,
            "lng": -81.6498195
        }, {
            "id": 47842,
            "placeid": 1342,
            "city": "Rock Hill",
            "state": "SC",
            "lat": 34.9248667,
            "lng": -81.0250784
        }, {
            "id": 47852,
            "placeid": 1352,
            "city": "Greenville",
            "state": "SC",
            "lat": 34.851354,
            "lng": -82.3984882
        }, {
            "id": 47862,
            "placeid": 6192,
            "city": "Fort Mill",
            "state": "SC",
            "lat": 35.0073697,
            "lng": -80.9450759
        }, {
            "id": 47872,
            "placeid": 1272,
            "city": "Spartanburg",
            "state": "SC",
            "lat": 34.9498007,
            "lng": -81.9320157
        }, {
            "id": 47882,
            "placeid": 60032,
            "city": "Lancaster",
            "state": "SC",
            "lat": 34.6628067,
            "lng": -80.7005459
        }, {
            "id": 47892,
            "placeid": 60042,
            "city": "Roebuck",
            "state": "SC",
            "lat": 34.8795683,
            "lng": -81.9662138
        }, {
            "id": 47902,
            "placeid": 6832,
            "city": "Gaffney",
            "state": "SC",
            "lat": 35.0717945,
            "lng": -81.6498195
        }, {
            "id": 47912,
            "placeid": 4682,
            "city": "Aiken",
            "state": "SC",
            "lat": 33.5598586,
            "lng": -81.721952
        }
        ]
    }, {
        "tripid": 20692,
        "candidate": "Ted Cruz",
        "state": "SC",
        "start": "2016-02-10T00:00:00.000Z",
        "end": "2016-02-16T00:00:00.000Z",
        "total_days": 7,
        "accompanied_by": "Glenn Beck, Jeff Duncan",
        "notes": "Rallies; Carolina Values Summit; Faith and Family Presidential Forum; church visit;",
        "stops": [{
            "id": 47362,
            "placeid": 62,
            "city": "Myrtle Beach",
            "state": "SC",
            "lat": 33.6956461,
            "lng": -78.8900409
        }, {
            "id": 47372,
            "placeid": 1342,
            "city": "Rock Hill",
            "state": "SC",
            "lat": 34.9248667,
            "lng": -81.0250784
        }, {
            "id": 47382,
            "placeid": 6192,
            "city": "Fort Mill",
            "state": "SC",
            "lat": 35.0073697,
            "lng": -80.9450759
        }, {
            "id": 47392,
            "placeid": 1352,
            "city": "Greenville",
            "state": "SC",
            "lat": 34.851354,
            "lng": -82.3984882
        }, {
            "id": 47402,
            "placeid": 8322,
            "city": "Beaufort",
            "state": "SC",
            "lat": 32.4315813,
            "lng": -80.6698286
        }, {
            "id": 47412,
            "placeid": 4682,
            "city": "Aiken",
            "state": "SC",
            "lat": 33.5598586,
            "lng": -81.721952
        }, {
            "id": 47422,
            "placeid": 59202,
            "city": "Camden",
            "state": "SC",
            "lat": 34.2465393,
            "lng": -80.6070237
        }, {
            "id": 47432,
            "placeid": 6182,
            "city": "Florence",
            "state": "SC",
            "lat": 34.1984435,
            "lng": -79.7671658
        }, {
            "id": 47442,
            "placeid": 352,
            "city": "Columbia",
            "state": "SC",
            "lat": 34.0007493,
            "lng": -81.0343313
        }, {
            "id": 47452,
            "placeid": 7662,
            "city": "Anderson",
            "state": "SC",
            "lat": 34.5068601,
            "lng": -82.6506264
        }
        ]
    }, {
        "tripid": 20702,
        "candidate": "John Kasich",
        "state": "SC",
        "start": "2016-02-10T00:00:00.000Z",
        "end": "2016-02-13T00:00:00.000Z",
        "total_days": 4,
        "accompanied_by": null,
        "notes": "town halls, Chamber of Commerce lunch, job creation event",
        "stops": [{
            "id": 47462,
            "placeid": 4742,
            "city": "Mt. Pleasant",
            "state": "SC",
            "lat": 32.7940651,
            "lng": -79.8625851
        }, {
            "id": 47472,
            "placeid": 3752,
            "city": "Charleston",
            "state": "SC",
            "lat": 32.7876012,
            "lng": -79.9402728
        }, {
            "id": 47482,
            "placeid": 58252,
            "city": "Huger",
            "state": "SC",
            "lat": 33.0965591,
            "lng": -79.8034119
        }, {
            "id": 47492,
            "placeid": 46392,
            "city": "Pawleys Island",
            "state": "SC",
            "lat": 33.4293486,
            "lng": -79.1215912
        }, {
            "id": 47502,
            "placeid": 58262,
            "city": "North Myrtle Beach",
            "state": "SC",
            "lat": 33.8160058,
            "lng": -78.6800159
        }, {
            "id": 47512,
            "placeid": 6182,
            "city": "Florence",
            "state": "SC",
            "lat": 34.1984435,
            "lng": -79.7671658
        }, {
            "id": 47522,
            "placeid": 352,
            "city": "Columbia",
            "state": "SC",
            "lat": 34.0007493,
            "lng": -81.0343313
        }, {
            "id": 47532,
            "placeid": 6962,
            "city": "Orangeburg",
            "state": "SC",
            "lat": 33.4918203,
            "lng": -80.8556476
        }, {
            "id": 47542,
            "placeid": 72,
            "city": "Bluffton",
            "state": "SC",
            "lat": 32.2371465,
            "lng": -80.8603868
        }
        ]
    }, {
        "tripid": 20712,
        "candidate": "Marco Rubio",
        "state": "SC",
        "start": "2016-02-10T00:00:00.000Z",
        "end": "2016-02-19T00:00:00.000Z",
        "total_days": 10,
        "accompanied_by": "Trey Gowdy",
        "notes": "Rallies; town hall; CBS debate; CNN town hall",
        "stops": [{
            "id": 47552,
            "placeid": 59222,
            "city": "Easley",
            "state": "SC",
            "lat": 34.8269276,
            "lng": -82.5817052
        }, {
            "id": 47562,
            "placeid": 58282,
            "city": "Simpsonville",
            "state": "SC",
            "lat": 34.7370639,
            "lng": -82.2542833
        }, {
            "id": 47572,
            "placeid": 352,
            "city": "Columbia",
            "state": "SC",
            "lat": 34.0007493,
            "lng": -81.0343313
        }, {
            "id": 47582,
            "placeid": 1272,
            "city": "Spartanburg",
            "state": "SC",
            "lat": 34.9498007,
            "lng": -81.9320157
        }, {
            "id": 47592,
            "placeid": 1352,
            "city": "Greenville",
            "state": "SC",
            "lat": 34.851354,
            "lng": -82.3984882
        }, {
            "id": 47602,
            "placeid": 6002,
            "city": "North Charleston",
            "state": "SC",
            "lat": 32.8546197,
            "lng": -79.9748103
        }, {
            "id": 47612,
            "placeid": 1342,
            "city": "Rock Hill",
            "state": "SC",
            "lat": 34.9248667,
            "lng": -81.0250784
        }, {
            "id": 47622,
            "placeid": 1352,
            "city": "Greenville",
            "state": "SC",
            "lat": 34.851354,
            "lng": -82.3984882
        }, {
            "id": 47632,
            "placeid": 8322,
            "city": "Beaufort",
            "state": "SC",
            "lat": 32.4315813,
            "lng": -80.6698286
        }, {
            "id": 47642,
            "placeid": 8362,
            "city": "Summerville",
            "state": "SC",
            "lat": 33.0000235,
            "lng": -80.1897926057948
        }, {
            "id": 47652,
            "placeid": 60012,
            "city": "Mt Pleasant",
            "state": "SC",
            "lat": 32.7940651,
            "lng": -79.862585
        }, {
            "id": 47662,
            "placeid": 4682,
            "city": "Aiken",
            "state": "SC",
            "lat": 33.5598586,
            "lng": -81.721952
        }, {
            "id": 47672,
            "placeid": 10132,
            "city": "Chapin",
            "state": "SC",
            "lat": 34.1659795,
            "lng": -81.3498212
        }, {
            "id": 50202,
            "placeid": 65842,
            "city": "Okatie",
            "state": "SC",
            "lat": 0,
            "lng": 0
        }, {
            "id": 50212,
            "placeid": 65852,
            "city": "Mrytle Beach",
            "state": "SC",
            "lat": 0,
            "lng": 0
        }, {
            "id": 50222,
            "placeid": 65862,
            "city": "North Mrytle Beach",
            "state": "SC",
            "lat": 0,
            "lng": 0
        }
        ]
    }, {
        "tripid": 20722,
        "candidate": "Jeb Bush",
        "state": "SC",
        "start": "2016-02-10T00:00:00.000Z",
        "end": "2016-02-17T00:00:00.000Z",
        "total_days": 7,
        "accompanied_by": "George W. Bush",
        "notes": "Rallies; town halls; meet and greets; Family Policy Forum; \"Last Word in the South\" Candidate forum;",
        "stops": [{
            "id": 47682,
            "placeid": 72,
            "city": "Bluffton",
            "state": "SC",
            "lat": 32.2371465,
            "lng": -80.8603868
        }, {
            "id": 47692,
            "placeid": 1962,
            "city": "Mount Pleasant",
            "state": "SC",
            "lat": 32.7940651,
            "lng": -79.8625851
        }, {
            "id": 47702,
            "placeid": 58592,
            "city": "Murrells Inlet",
            "state": "SC",
            "lat": 33.5313194,
            "lng": -79.0364539
        }, {
            "id": 47712,
            "placeid": 6182,
            "city": "Florence",
            "state": "SC",
            "lat": 34.1984435,
            "lng": -79.7671658
        }, {
            "id": 47722,
            "placeid": 9372,
            "city": "Sumter",
            "state": "SC",
            "lat": 33.9204354,
            "lng": -80.3414693
        }, {
            "id": 47732,
            "placeid": 352,
            "city": "Columbia",
            "state": "SC",
            "lat": 34.0007493,
            "lng": -81.0343313
        }, {
            "id": 47742,
            "placeid": 7662,
            "city": "Anderson",
            "state": "SC",
            "lat": 34.5068601,
            "lng": -82.6506264
        }, {
            "id": 47752,
            "placeid": 1352,
            "city": "Greenville",
            "state": "SC",
            "lat": 34.851354,
            "lng": -82.3984882
        }, {
            "id": 47762,
            "placeid": 59252,
            "city": "Fountain Inn",
            "state": "SC",
            "lat": 34.6890095,
            "lng": -82.1956678
        }, {
            "id": 47772,
            "placeid": 352,
            "city": "Columbia",
            "state": "SC",
            "lat": 34.0007493,
            "lng": -81.0343313
        }, {
            "id": 47782,
            "placeid": 60022,
            "city": "Batesburg-Leesville",
            "state": "SC",
            "lat": 33.9101425,
            "lng": -81.537326
        }, {
            "id": 47792,
            "placeid": 4682,
            "city": "Aiken",
            "state": "SC",
            "lat": 33.5598586,
            "lng": -81.721952
        }, {
            "id": 47802,
            "placeid": 8322,
            "city": "Beaufort",
            "state": "SC",
            "lat": 32.4315813,
            "lng": -80.6698286
        }, {
            "id": 47812,
            "placeid": 8362,
            "city": "Summerville",
            "state": "SC",
            "lat": 33.0000235,
            "lng": -80.1897926057948
        }, {
            "id": 47822,
            "placeid": 62,
            "city": "Myrtle Beach",
            "state": "SC",
            "lat": 33.6956461,
            "lng": -78.8900409
        }
        ]
    }, {
        "tripid": 20682,
        "candidate": "Carly Fiorina",
        "state": "NH",
        "start": "2016-02-08T00:00:00.000Z",
        "end": "2016-02-09T00:00:00.000Z",
        "total_days": 2,
        "accompanied_by": null,
        "notes": "Coffee, Kiwanis lunch, town hall, primary night party",
        "stops": [{
            "id": 47342,
            "placeid": 22,
            "city": "Manchester",
            "state": "NH",
            "lat": 42.9956397,
            "lng": -71.4547891
        }, {
            "id": 47352,
            "placeid": 2,
            "city": "Concord",
            "state": "NH",
            "lat": 43.207106,
            "lng": -71.5370216
        }
        ]
    }, {
        "tripid": 20662,
        "candidate": "John Kasich",
        "state": "NH",
        "start": "2016-02-07T00:00:00.000Z",
        "end": "2016-02-08T00:00:00.000Z",
        "total_days": 2,
        "accompanied_by": null,
        "notes": "Town halls",
        "stops": [{
            "id": 47272,
            "placeid": 3322,
            "city": "Nashua",
            "state": "NH",
            "lat": 42.7653662,
            "lng": -71.467566
        }, {
            "id": 47282,
            "placeid": 2,
            "city": "Concord",
            "state": "NH",
            "lat": 43.207106,
            "lng": -71.5370216
        }, {
            "id": 47292,
            "placeid": 9162,
            "city": "Plaistow",
            "state": "NH",
            "lat": 42.8364781,
            "lng": -71.0947805
        }, {
            "id": 47302,
            "placeid": 4922,
            "city": "Windham",
            "state": "NH",
            "lat": 42.8006441,
            "lng": -71.304229
        }, {
            "id": 47312,
            "placeid": 4472,
            "city": "Merrimack",
            "state": "NH",
            "lat": 42.8650864,
            "lng": -71.4934004
        }, {
            "id": 47322,
            "placeid": 22,
            "city": "Manchester",
            "state": "NH",
            "lat": 42.9956397,
            "lng": -71.4547891
        }
        ]
    }, {
        "tripid": 20672,
        "candidate": "Hillary Clinton",
        "state": "MI",
        "start": "2016-02-07T00:00:00.000Z",
        "end": "2016-02-07T00:00:00.000Z",
        "total_days": 1,
        "accompanied_by": null,
        "notes": "community meeting",
        "stops": [{
            "id": 47332,
            "placeid": 7872,
            "city": "Flint",
            "state": "MI",
            "lat": 43.0171773,
            "lng": -83.7236024
        }
        ]
    }, {
        "tripid": 20642,
        "candidate": "Ben Carson",
        "state": "NH",
        "start": "2016-02-06T00:00:00.000Z",
        "end": "2016-02-06T00:00:00.000Z",
        "total_days": 1,
        "accompanied_by": null,
        "notes": "Meeting volunteers; ABC News debate",
        "stops": [{
            "id": 47222,
            "placeid": 22,
            "city": "Manchester",
            "state": "NH",
            "lat": 42.9956397,
            "lng": -71.4547891
        }
        ]
    }, {
        "tripid": 20652,
        "candidate": "Donald Trump",
        "state": "NH",
        "start": "2016-02-06T00:00:00.000Z",
        "end": "2016-02-09T00:00:00.000Z",
        "total_days": 3,
        "accompanied_by": null,
        "notes": "ABC News debate; rallies",
        "stops": [{
            "id": 47232,
            "placeid": 22,
            "city": "Manchester",
            "state": "NH",
            "lat": 42.9956397,
            "lng": -71.4547891
        }, {
            "id": 47242,
            "placeid": 6292,
            "city": "Plymouth",
            "state": "NH",
            "lat": 43.7570166,
            "lng": -71.6881337
        }, {
            "id": 47252,
            "placeid": 6122,
            "city": "Salem",
            "state": "NH",
            "lat": 42.7884226,
            "lng": -71.2008933
        }, {
            "id": 47262,
            "placeid": 4862,
            "city": "Londonderry",
            "state": "NH",
            "lat": 42.8650869,
            "lng": -71.3739532
        }
        ]
    }, {
        "tripid": 20632,
        "candidate": "Donald Trump",
        "state": "SC",
        "start": "2016-02-05T00:00:00.000Z",
        "end": "2016-02-05T00:00:00.000Z",
        "total_days": 1,
        "accompanied_by": null,
        "notes": "Campaign rally",
        "stops": [{
            "id": 47212,
            "placeid": 6182,
            "city": "Florence",
            "state": "SC",
            "lat": 34.1984435,
            "lng": -79.7671658
        }
        ]
    }, {
        "tripid": 20612,
        "candidate": "Donald Trump",
        "state": "NH",
        "start": "2016-02-04T00:00:00.000Z",
        "end": "2016-02-04T00:00:00.000Z",
        "total_days": 1,
        "accompanied_by": null,
        "notes": "Town hall; rally",
        "stops": [{
            "id": 47102,
            "placeid": 3662,
            "city": "Exeter",
            "state": "NH",
            "lat": 42.981477,
            "lng": -70.9478343
        }, {
            "id": 47112,
            "placeid": 3222,
            "city": "Portsmouth",
            "state": "NH",
            "lat": 43.0717552,
            "lng": -70.7625532
        }
        ]
    }, {
        "tripid": 20622,
        "candidate": "Marco Rubio",
        "state": "NH",
        "start": "2016-02-04T00:00:00.000Z",
        "end": "2016-02-08T00:00:00.000Z",
        "total_days": 5,
        "accompanied_by": null,
        "notes": "Town halls; rally; ABC News debate",
        "stops": [{
            "id": 47122,
            "placeid": 3222,
            "city": "Portsmouth",
            "state": "NH",
            "lat": 43.0717552,
            "lng": -70.7625532
        }, {
            "id": 47132,
            "placeid": 8142,
            "city": "Stratham",
            "state": "NH",
            "lat": 43.015056,
            "lng": -70.8999114783665
        }, {
            "id": 47142,
            "placeid": 22,
            "city": "Manchester",
            "state": "NH",
            "lat": 42.9956397,
            "lng": -71.4547891
        }, {
            "id": 47152,
            "placeid": 6122,
            "city": "Salem",
            "state": "NH",
            "lat": 42.7884226,
            "lng": -71.2008933
        }, {
            "id": 47162,
            "placeid": 5002,
            "city": "Derry",
            "state": "NH",
            "lat": 42.8808677,
            "lng": -71.3264492
        }, {
            "id": 47172,
            "placeid": 1772,
            "city": "Bedford",
            "state": "NH",
            "lat": 42.9464737,
            "lng": -71.5159015
        }, {
            "id": 47182,
            "placeid": 4862,
            "city": "Londonderry",
            "state": "NH",
            "lat": 42.8650869,
            "lng": -71.3739532
        }, {
            "id": 47192,
            "placeid": 3132,
            "city": "Hudson",
            "state": "NH",
            "lat": 42.7654433,
            "lng": -71.4397167
        }, {
            "id": 47202,
            "placeid": 3322,
            "city": "Nashua",
            "state": "NH",
            "lat": 42.7653662,
            "lng": -71.467566
        }
        ]
    }, {
        "tripid": 20562,
        "candidate": "Ted Cruz",
        "state": "NH",
        "start": "2016-02-03T00:00:00.000Z",
        "end": "2016-02-09T00:00:00.000Z",
        "total_days": 7,
        "accompanied_by": null,
        "notes": "Town halls; retail stops; \"Addiction and Recovery\" discussion; WMUR/IJ Review Debate; Tea Party Nation/603 Alliance meet and greet; watch party",
        "stops": [{
            "id": 46702,
            "placeid": 4722,
            "city": "Henniker",
            "state": "NH",
            "lat": 43.1798012,
            "lng": -71.822301
        }, {
            "id": 46712,
            "placeid": 6972,
            "city": "Hooksett",
            "state": "NH",
            "lat": 43.0967495,
            "lng": -71.4650684
        }, {
            "id": 46722,
            "placeid": 1562,
            "city": "Goffstown",
            "state": "NH",
            "lat": 43.0203609,
            "lng": -71.600349
        }, {
            "id": 46732,
            "placeid": 5472,
            "city": "Amherst",
            "state": "NH",
            "lat": 42.8642874,
            "lng": -71.6252484
        }, {
            "id": 46742,
            "placeid": 3322,
            "city": "Nashua",
            "state": "NH",
            "lat": 42.7653662,
            "lng": -71.467566
        }, {
            "id": 46752,
            "placeid": 3222,
            "city": "Portsmouth",
            "state": "NH",
            "lat": 43.0717552,
            "lng": -70.7625532
        }, {
            "id": 46762,
            "placeid": 6972,
            "city": "Hooksett",
            "state": "NH",
            "lat": 43.0967495,
            "lng": -71.4650684
        }, {
            "id": 46772,
            "placeid": 8372,
            "city": "Weare",
            "state": "NH",
            "lat": 43.0948033,
            "lng": -71.7306314
        }, {
            "id": 46782,
            "placeid": 4902,
            "city": "Laconia",
            "state": "NH",
            "lat": 43.5278546,
            "lng": -71.470351
        }, {
            "id": 46792,
            "placeid": 6122,
            "city": "Salem",
            "state": "NH",
            "lat": 42.7884226,
            "lng": -71.2008933
        }, {
            "id": 46802,
            "placeid": 22,
            "city": "Manchester",
            "state": "NH",
            "lat": 42.9956397,
            "lng": -71.4547891
        }, {
            "id": 46812,
            "placeid": 42802,
            "city": "Petersborough",
            "state": "NH",
            "lat": 42.8778613,
            "lng": -71.9495237
        }, {
            "id": 46822,
            "placeid": 32,
            "city": "Keene",
            "state": "NH",
            "lat": 42.933597,
            "lng": -72.2784264
        }, {
            "id": 46832,
            "placeid": 3272,
            "city": "Barrington",
            "state": "NH",
            "lat": 43.2228599,
            "lng": -71.0470077
        }, {
            "id": 46842,
            "placeid": 10252,
            "city": "Raymond",
            "state": "NH",
            "lat": 43.0361961,
            "lng": -71.1833951
        }, {
            "id": 46852,
            "placeid": 2232,
            "city": "Hollis",
            "state": "NH",
            "lat": 42.7431621,
            "lng": -71.591333
        }
        ]
    }, {
        "tripid": 20572,
        "candidate": "Donald Trump",
        "state": "AR",
        "start": "2016-02-03T00:00:00.000Z",
        "end": "2016-02-03T00:00:00.000Z",
        "total_days": 1,
        "accompanied_by": null,
        "notes": "Campaign rally",
        "stops": [{
            "id": 46862,
            "placeid": 1742,
            "city": "Little Rock",
            "state": "AR",
            "lat": 34.7464809,
            "lng": -92.2895948
        }
        ]
    }, {
        "tripid": 20582,
        "candidate": "Carly Fiorina",
        "state": "NH",
        "start": "2016-02-03T00:00:00.000Z",
        "end": "2016-02-08T00:00:00.000Z",
        "total_days": 6,
        "accompanied_by": null,
        "notes": "\"Life of the Party\" event; rallies; town halls; candidate forums; Coffee with Carly; Superbowl party",
        "stops": [{
            "id": 46872,
            "placeid": 22,
            "city": "Manchester",
            "state": "NH",
            "lat": 42.9956397,
            "lng": -71.4547891
        }, {
            "id": 46882,
            "placeid": 4862,
            "city": "Londonderry",
            "state": "NH",
            "lat": 42.8650869,
            "lng": -71.3739532
        }, {
            "id": 46892,
            "placeid": 4922,
            "city": "Windham",
            "state": "NH",
            "lat": 42.8006441,
            "lng": -71.304229
        }, {
            "id": 46902,
            "placeid": 3322,
            "city": "Nashua",
            "state": "NH",
            "lat": 42.7653662,
            "lng": -71.467566
        }, {
            "id": 46912,
            "placeid": 5312,
            "city": "Rindge",
            "state": "NH",
            "lat": 42.7511964,
            "lng": -72.0098021
        }, {
            "id": 46922,
            "placeid": 3322,
            "city": "Nashua",
            "state": "NH",
            "lat": 42.7653662,
            "lng": -71.467566
        }, {
            "id": 46932,
            "placeid": 22,
            "city": "Manchester",
            "state": "NH",
            "lat": 42.9956397,
            "lng": -71.4547891
        }, {
            "id": 46942,
            "placeid": 4472,
            "city": "Merrimack",
            "state": "NH",
            "lat": 42.8650864,
            "lng": -71.4934004
        },